[{"id":"P1","name":"Padang Besar","geo_lat":"6.656006","geo_lng":"100.311325","state":"Perlis"},{"id":"P2","name":"Kangar","geo_lat":"6.445515","geo_lng":"100.200233","state":"Perlis"},{"id":"P3","name":"Arau","geo_lat":"6.414992","geo_lng":"100.282341","state":"Perlis"},{"id":"P4","name":"Langkawi","geo_lat":"6.323300","geo_lng":"99.854721","state":"Kedah"},{"id":"P5","name":"Jerlun","geo_lat":"6.210394","geo_lng":"100.267021","state":"Kedah"},{"id":"P6","name":"Kubang Pasu","geo_lat":"6.035388","geo_lng":"100.401733","state":"Kedah"},{"id":"P7","name":"Padang Terap","geo_lat":"6.256091","geo_lng":"100.664711","state":"Kedah"},{"id":"P8","name":"Pokok Sena","geo_lat":"6.153744","geo_lng":"100.534271","state":"Kedah"},{"id":"P9","name":"Alor Star","geo_lat":"6.119359","geo_lng":"100.367691","state":"Kedah"},{"id":"P10","name":"Kuala Kedah","geo_lat":"6.099918","geo_lng":"100.302673","state":"Kedah"},{"id":"P11","name":"Pendang","geo_lat":"5.982451","geo_lng":"100.459366","state":"Kedah"},{"id":"P12","name":"Jerai","geo_lat":"5.770660","geo_lng":"100.431740","state":"Kedah"},{"id":"P13","name":"Sik","geo_lat":"5.805079","geo_lng":"100.747169","state":"Kedah"},{"id":"P14","name":"Merbok","geo_lat":"5.724557","geo_lng":"100.368835","state":"Kedah"},{"id":"P15","name":"Sungai Petani","geo_lat":"5.649024","geo_lng":"100.495132","state":"Kedah"},{"id":"P16","name":"Baling","geo_lat":"5.664394","geo_lng":"100.901581","state":"Kedah"},{"id":"P17","name":"Padang Serai","geo_lat":"5.515608","geo_lng":"100.550751","state":"Kedah"},{"id":"P18","name":"Kulim - Bandar Baharu","geo_lat":"5.389450","geo_lng":"100.563431","state":"Kedah"},{"id":"P19","name":"Tumpat","geo_lat":"6.195073","geo_lng":"102.165733","state":"Kelantan"},{"id":"P20","name":"Pengkalan Chepa","geo_lat":"6.168104","geo_lng":"102.293510","state":"Kelantan"},{"id":"P21","name":"Kota Bharu","geo_lat":"6.122013","geo_lng":"102.252266","state":"Kelantan"},{"id":"P22","name":"Pasir Mas","geo_lat":"6.042681","geo_lng":"102.139114","state":"Kelantan"},{"id":"P23","name":"Rantau Panjang","geo_lat":"6.016793","geo_lng":"101.982513","state":"Kelantan"},{"id":"P24","name":"Kubang Kerian","geo_lat":"6.086967","geo_lng":"102.276253","state":"Kelantan"},{"id":"P25","name":"Bachok","geo_lat":"6.054708","geo_lng":"102.386780","state":"Kelantan"},{"id":"P26","name":"Ketereh","geo_lat":"5.966022","geo_lng":"102.245064","state":"Kelantan"},{"id":"P27","name":"Tanah Merah","geo_lat":"5.807429","geo_lng":"102.151024","state":"Kelantan"},{"id":"P28","name":"Pasih Puteh","geo_lat":"5.832856","geo_lng":"102.405281","state":"Kelantan"},{"id":"P29","name":"Machang","geo_lat":"5.761049","geo_lng":"102.219246","state":"Kelantan"},{"id":"P30","name":"Jeli","geo_lat":"5.695488","geo_lng":"101.838890","state":"Kelantan"},{"id":"P31","name":"Kuala Krai","geo_lat":"5.533928","geo_lng":"102.199638","state":"Kelantan"},{"id":"P32","name":"Gua Musang","geo_lat":"4.860047","geo_lng":"101.963364","state":"Kelantan"},{"id":"P33","name":"Besut","geo_lat":"5.636538","geo_lng":"102.483917","state":"Terengganu"},{"id":"P34","name":"Setiu","geo_lat":"5.466215","geo_lng":"102.759483","state":"Terengganu"},{"id":"P35","name":"Kuala Nerus","geo_lat":"5.333333","geo_lng":"102.750000","state":"Terengganu"},{"id":"P36","name":"Kuala Terengganu","geo_lat":"5.311737","geo_lng":"103.119911","state":"Terengganu"},{"id":"P37","name":"Marang","geo_lat":"5.202293","geo_lng":"103.200340","state":"Terengganu"},{"id":"P38","name":"Hulu Terengganu","geo_lat":"5.017761","geo_lng":"102.713509","state":"Terengganu"},{"id":"P39","name":"Dungun","geo_lat":"4.756459","geo_lng":"103.399681","state":"Terengganu"},{"id":"P40","name":"Kemaman","geo_lat":"4.360890","geo_lng":"103.266350","state":"Terengganu"},{"id":"P41","name":"Kepala Batas","geo_lat":"5.521016","geo_lng":"100.436813","state":"Pulau Pinang"},{"id":"P42","name":"Tasek Gelugor","geo_lat":"5.493629","geo_lng":"100.504890","state":"Pulau Pinang"},{"id":"P43","name":"Bagan","geo_lat":"5.370449","geo_lng":"100.237579","state":"Pulau Pinang"},{"id":"P44","name":"Permatang Pauh","geo_lat":"5.405016","geo_lng":"100.414131","state":"Pulau Pinang"},{"id":"P45","name":"Bukit Mertajam","geo_lat":"5.353762","geo_lng":"100.474426","state":"Pulau Pinang"},{"id":"P46","name":"Batu Kawan","geo_lat":"5.250000","geo_lng":"100.433334","state":"Pulau Pinang"},{"id":"P47","name":"Nibong Tebal","geo_lat":"5.167945","geo_lng":"100.478325","state":"Pulau Pinang"},{"id":"P48","name":"Bukit Bendera","geo_lat":"5.433333","geo_lng":"100.266670","state":"Pulau Pinang"},{"id":"P49","name":"Tanjong","geo_lat":"5.423256","geo_lng":"100.318916","state":"Pulau Pinang"},{"id":"P50","name":"Jelutong","geo_lat":"5.370449","geo_lng":"100.237579","state":"Pulau Pinang"},{"id":"P51","name":"Bukit Gelugor","geo_lat":"5.365000","geo_lng":"100.298332","state":"Pulau Pinang"},{"id":"P52","name":"Bayan Baru","geo_lat":"5.329658","geo_lng":"100.286659","state":"Pulau Pinang"},{"id":"P53","name":"Balik Pulau","geo_lat":"5.377217","geo_lng":"100.214394","state":"Pulau Pinang"},{"id":"P54","name":"Gerik","geo_lat":"5.437870","geo_lng":"101.139816","state":"Perak"},{"id":"P55","name":"Lenggong","geo_lat":"5.128477","geo_lng":"100.992874","state":"Perak"},{"id":"P56","name":"Larut","geo_lat":"4.854099","geo_lng":"100.737572","state":"Perak"},{"id":"P57","name":"Parit Buntar","geo_lat":"5.105370","geo_lng":"100.485390","state":"Perak"},{"id":"P58","name":"Bagan Serai","geo_lat":"5.047676","geo_lng":"100.636070","state":"Perak"},{"id":"P59","name":"Bukit Gantang","geo_lat":"4.781135","geo_lng":"100.761932","state":"Perak"},{"id":"P60","name":"Taiping","geo_lat":"4.854099","geo_lng":"100.737572","state":"Perak"},{"id":"P61","name":"Padang Rengas","geo_lat":"4.781256","geo_lng":"100.846611","state":"Perak"},{"id":"P62","name":"Sungai Siput","geo_lat":"4.822372","geo_lng":"101.089066","state":"Perak"},{"id":"P63","name":"Tambun","geo_lat":"4.634375","geo_lng":"101.127296","state":"Perak"},{"id":"P64","name":"Ipoh Timor","geo_lat":"4.570481","geo_lng":"101.098045","state":"Perak"},{"id":"P65","name":"Ipoh Barat","geo_lat":"4.570481","geo_lng":"101.098045","state":"Perak"},{"id":"P66","name":"Batu Gajah","geo_lat":"4.469316","geo_lng":"101.039688","state":"Perak"},{"id":"P67","name":"Kuala Kangsar","geo_lat":"4.772697","geo_lng":"100.940308","state":"Perak"},{"id":"P68","name":"Beruas","geo_lat":"4.478995","geo_lng":"100.785950","state":"Perak"},{"id":"P69","name":"Parit","geo_lat":"4.491475","geo_lng":"100.918976","state":"Perak"},{"id":"P70","name":"Kampar","geo_lat":"4.311012","geo_lng":"101.151871","state":"Perak"},{"id":"P71","name":"Gopeng","geo_lat":"4.461934","geo_lng":"101.166061","state":"Perak"},{"id":"P72","name":"Tapah","geo_lat":"4.203994","geo_lng":"101.260971","state":"Perak"},{"id":"P73","name":"Pasir Salak","geo_lat":"4.173347","geo_lng":"100.946861","state":"Perak"},{"id":"P74","name":"Lumut","geo_lat":"4.210886","geo_lng":"100.641365","state":"Perak"},{"id":"P75","name":"Bagan Datok","geo_lat":"3.964729","geo_lng":"100.752960","state":"Perak"},{"id":"P76","name":"Telok Intan","geo_lat":"4.012414","geo_lng":"101.018005","state":"Perak"},{"id":"P77","name":"Tanjong Malim","geo_lat":"3.691300","geo_lng":"101.523560","state":"Perak"},{"id":"P78","name":"Cemeron Highlands","geo_lat":"4.512017","geo_lng":"101.479347","state":"Pahang"},{"id":"P79","name":"Lipis","geo_lat":"4.382780","geo_lng":"101.980461","state":"Pahang"},{"id":"P80","name":"Raub","geo_lat":"3.792596","geo_lng":"101.858391","state":"Pahang"},{"id":"P81","name":"Jerantut","geo_lat":"3.946838","geo_lng":"102.379883","state":"Pahang"},{"id":"P82","name":"Indera Mahkota","geo_lat":"3.819290","geo_lng":"103.292320","state":"Pahang"},{"id":"P83","name":"Kuantan","geo_lat":"3.824973","geo_lng":"103.323898","state":"Pahang"},{"id":"P84","name":"Paya Besar","geo_lat":"3.775539","geo_lng":"103.275726","state":"Pahang"},{"id":"P85","name":"Pekan","geo_lat":"3.500721","geo_lng":"103.390121","state":"Pahang"},{"id":"P86","name":"Maran","geo_lat":"3.584086","geo_lng":"102.782959","state":"Pahang"},{"id":"P87","name":"Kuala Krau","geo_lat":"3.619202","geo_lng":"102.386169","state":"Pahang"},{"id":"P88","name":"Temerloh","geo_lat":"3.453159","geo_lng":"102.424492","state":"Pahang"},{"id":"P89","name":"Bentong","geo_lat":"3.524933","geo_lng":"101.909737","state":"Pahang"},{"id":"P90","name":"Bera","geo_lat":"3.259544","geo_lng":"102.529800","state":"Pahang"},{"id":"P91","name":"Rompin","geo_lat":"2.783665","geo_lng":"103.081787","state":"Pahang"},{"id":"P92","name":"Sabak Bernam","geo_lat":"3.731697","geo_lng":"100.938370","state":"Selangor"},{"id":"P93","name":"Sungai Besar","geo_lat":"3.663678","geo_lng":"101.015892","state":"Selangor"},{"id":"P94","name":"Hulu Selangor","geo_lat":"3.587517","geo_lng":"101.615776","state":"Selangor"},{"id":"P95","name":"Tanjong Karang","geo_lat":"3.424191","geo_lng":"101.184547","state":"Selangor"},{"id":"P96","name":"Kuala Selangor","geo_lat":"3.334976","geo_lng":"101.258026","state":"Selangor"},{"id":"P97","name":"Selayang","geo_lat":"3.267693","geo_lng":"101.658447","state":"Selangor"},{"id":"P98","name":"Gombak","geo_lat":"3.228860","geo_lng":"101.711098","state":"Selangor"},{"id":"P99","name":"Ampang","geo_lat":"3.158800","geo_lng":"101.757446","state":"Selangor"},{"id":"P100","name":"Pandan","geo_lat":"3.129933","geo_lng":"101.750961","state":"Selangor"},{"id":"P101","name":"Hulu Langat","geo_lat":"3.111642","geo_lng":"101.813164","state":"Selangor"},{"id":"P102","name":"Serdang","geo_lat":"3.023056","geo_lng":"101.715836","state":"Selangor"},{"id":"P103","name":"Puchong","geo_lat":"3.013086","geo_lng":"101.613808","state":"Selangor"},{"id":"P104","name":"Kelana Jaya","geo_lat":"3.112770","geo_lng":"101.604156","state":"Selangor"},{"id":"P105","name":"Petaling Jaya Selatan","geo_lat":"3.184467","geo_lng":"101.595016","state":"Selangor"},{"id":"P106","name":"Petaling Jaya Utara","geo_lat":"3.106881","geo_lng":"101.640137","state":"Selangor"},{"id":"P107","name":"Subang","geo_lat":"3.130442","geo_lng":"101.551826","state":"Selangor"},{"id":"P108","name":"Shah Alam","geo_lat":"3.090607","geo_lng":"101.529594","state":"Selangor"},{"id":"P109","name":"Kapar","geo_lat":"3.139796","geo_lng":"101.367836","state":"Selangor"},{"id":"P110","name":"Klang","geo_lat":"3.043061","geo_lng":"101.440659","state":"Selangor"},{"id":"P111","name":"Kota Raja","geo_lat":"3.028627","geo_lng":"101.466942","state":"Selangor"},{"id":"P112","name":"Kuala Langat","geo_lat":"2.838841","geo_lng":"101.570282","state":"Selangor"},{"id":"P113","name":"Sepang","geo_lat":"2.819684","geo_lng":"101.733681","state":"Selangor"},{"id":"P114","name":"Kepong","geo_lat":"3.202500","geo_lng":"101.637222","state":"W.P. Kuala Lumpur"},{"id":"P115","name":"Batu","geo_lat":"3.139003","geo_lng":"101.686852","state":"W.P. Kuala Lumpur"},{"id":"P116","name":"Wangsa Maju","geo_lat":"3.198967","geo_lng":"101.739571","state":"W.P. Kuala Lumpur"},{"id":"P117","name":"Segambut","geo_lat":"3.192334","geo_lng":"101.674095","state":"W.P. Kuala Lumpur"},{"id":"P118","name":"Setiawangsa","geo_lat":"3.175600","geo_lng":"101.735703","state":"W.P. Kuala Lumpur"},{"id":"P119","name":"Titiwangsa","geo_lat":"3.177200","geo_lng":"101.705406","state":"W.P. Kuala Lumpur"},{"id":"P120","name":"Bukit Bintang","geo_lat":"3.145175","geo_lng":"101.708252","state":"W.P. Kuala Lumpur"},{"id":"P121","name":"Lembah Pantai","geo_lat":"3.106846","geo_lng":"101.673264","state":"W.P. Kuala Lumpur"},{"id":"P122","name":"Seputeh","geo_lat":"3.111704","geo_lng":"101.677658","state":"W.P. Kuala Lumpur"},{"id":"P123","name":"Cheras","geo_lat":"3.105638","geo_lng":"101.725334","state":"W.P. Kuala Lumpur"},{"id":"P124","name":"Bandar Tun Razak","geo_lat":"3.086010","geo_lng":"101.722488","state":"W.P. Kuala Lumpur"},{"id":"P125","name":"Putrajaya","geo_lat":"2.926361","geo_lng":"101.696442","state":"W.P. Putrajaya"},{"id":"P126","name":"Jelebu","geo_lat":"3.068039","geo_lng":"102.117538","state":"Negeri Sembilan"},{"id":"P127","name":"Jempol","geo_lat":"2.789758","geo_lng":"102.529800","state":"Negeri Sembilan"},{"id":"P128","name":"Seremban","geo_lat":"2.723983","geo_lng":"101.947647","state":"Negeri Sembilan"},{"id":"P129","name":"Kuala Pilah","geo_lat":"2.748964","geo_lng":"102.250214","state":"Negeri Sembilan"},{"id":"P130","name":"Rasah","geo_lat":"2.693973","geo_lng":"101.935898","state":"Negeri Sembilan"},{"id":"P131","name":"Rembau","geo_lat":"2.579660","geo_lng":"102.102379","state":"Negeri Sembilan"},{"id":"P132","name":"Telok Kemang","geo_lat":"2.466667","geo_lng":"101.849998","state":"Negeri Sembilan"},{"id":"P133","name":"Tampin","geo_lat":"2.489791","geo_lng":"102.237747","state":"Negeri Sembilan"},{"id":"P134","name":"Masjib Tanah","geo_lat":"2.350388","geo_lng":"102.107788","state":"Melaka"},{"id":"P135","name":"Alor Gajah","geo_lat":"2.373973","geo_lng":"102.211426","state":"Melaka"},{"id":"P136","name":"Tangga Batu","geo_lat":"2.250253","geo_lng":"102.158272","state":"Melaka"},{"id":"P137","name":"Bukit Katil","geo_lat":"2.250000","geo_lng":"102.316666","state":"Melaka"},{"id":"P138","name":"Kota Melaka","geo_lat":"2.205685","geo_lng":"102.256157","state":"Melaka"},{"id":"P139","name":"Jasin","geo_lat":"2.205685","geo_lng":"102.256157","state":"Melaka"},{"id":"P140","name":"Segamat","geo_lat":"2.510518","geo_lng":"102.839859","state":"Johor"},{"id":"P141","name":"Sekijang","geo_lat":"2.497665","geo_lng":"102.954124","state":"Johor"},{"id":"P142","name":"Labis","geo_lat":"2.394981","geo_lng":"103.016678","state":"Johor"},{"id":"P143","name":"Pagoh","geo_lat":"2.148384","geo_lng":"102.768997","state":"Johor"},{"id":"P144","name":"Ledang","geo_lat":"1.513315","geo_lng":"103.694092","state":"Johor"},{"id":"P145","name":"Bakri","geo_lat":"2.038770","geo_lng":"102.657349","state":"Johor"},{"id":"P146","name":"Muar","geo_lat":"2.039272","geo_lng":"102.569092","state":"Johor"},{"id":"P147","name":"Parit Sulong","geo_lat":"1.974753","geo_lng":"102.889290","state":"Johor"},{"id":"P148","name":"Ayer Hitam","geo_lat":"1.929564","geo_lng":"103.186172","state":"Johor"},{"id":"P149","name":"Sri Gading","geo_lat":"1.853623","geo_lng":"103.032814","state":"Johor"},{"id":"P150","name":"Batu Pahat","geo_lat":"1.843577","geo_lng":"102.947060","state":"Johor"},{"id":"P151","name":"Simpang Renggam","geo_lat":"1.828364","geo_lng":"103.310768","state":"Johor"},{"id":"P152","name":"Kluang","geo_lat":"2.028788","geo_lng":"103.315376","state":"Johor"},{"id":"P153","name":"Sembrong","geo_lat":"2.000270","geo_lng":"103.171150","state":"Johor"},{"id":"P154","name":"Mersing","geo_lat":"2.436106","geo_lng":"103.831223","state":"Johor"},{"id":"P155","name":"Tenggara","geo_lat":"1.866667","geo_lng":"103.616669","state":"Johor"},{"id":"P156","name":"Kota Tinggi","geo_lat":"1.732867","geo_lng":"103.901413","state":"Johor"},{"id":"P157","name":"Pengerang","geo_lat":"1.356738","geo_lng":"104.129425","state":"Johor"},{"id":"P158","name":"Tebrau","geo_lat":"1.493270","geo_lng":"103.766457","state":"Johor"},{"id":"P159","name":"Pasir Gudang","geo_lat":"1.467852","geo_lng":"103.902649","state":"Johor"},{"id":"P160","name":"Johor Bahru","geo_lat":"1.463430","geo_lng":"103.754715","state":"Johor"},{"id":"P161","name":"Pulai","geo_lat":"1.554188","geo_lng":"103.594803","state":"Johor"},{"id":"P162","name":"Gelang Patah","geo_lat":"1.436825","geo_lng":"103.602058","state":"Johor"},{"id":"P163","name":"Kulai","geo_lat":"1.651820","geo_lng":"103.603676","state":"Johor"},{"id":"P164","name":"Pontian","geo_lat":"1.486822","geo_lng":"103.398842","state":"Johor"},{"id":"P165","name":"Tanjong Piai","geo_lat":"1.266111","geo_lng":"103.510834","state":"Johor"},{"id":"P166","name":"Labuan","geo_lat":"5.291322","geo_lng":"115.245911","state":"W.P. Labuan"},{"id":"P167","name":"Kudat","geo_lat":"6.828547","geo_lng":"116.724121","state":"Sabah"},{"id":"P168","name":"Kota Marudu","geo_lat":"6.485247","geo_lng":"116.732849","state":"Sabah"},{"id":"P169","name":"Kota Belud","geo_lat":"6.364833","geo_lng":"116.447632","state":"Sabah"},{"id":"P170","name":"Tuaran","geo_lat":"6.168561","geo_lng":"116.234833","state":"Sabah"},{"id":"P171","name":"Sepanggar","geo_lat":"6.069343","geo_lng":"116.069466","state":"Sabah"},{"id":"P172","name":"Kota Kinabalu","geo_lat":"5.976474","geo_lng":"116.115776","state":"Sabah"},{"id":"P173","name":"Putatan","geo_lat":"5.880204","geo_lng":"116.049858","state":"Sabah"},{"id":"P174","name":"Penampang","geo_lat":"5.879359","geo_lng":"116.103989","state":"Sabah"},{"id":"P175","name":"Papar","geo_lat":"5.606407","geo_lng":"115.962479","state":"Sabah"},{"id":"P176","name":"Kimanis","geo_lat":"5.583333","geo_lng":"115.900002","state":"Sabah"},{"id":"P177","name":"Beaufort","geo_lat":"5.347493","geo_lng":"115.727310","state":"Sabah"},{"id":"P178","name":"Sipitang","geo_lat":"5.020164","geo_lng":"115.581078","state":"Sabah"},{"id":"P179","name":"Ranau","geo_lat":"5.937051","geo_lng":"116.669487","state":"Sabah"},{"id":"P180","name":"Keningau","geo_lat":"5.264971","geo_lng":"116.328255","state":"Sabah"},{"id":"P181","name":"Tenom","geo_lat":"4.987223","geo_lng":"115.924080","state":"Sabah"},{"id":"P182","name":"Pensiangan","geo_lat":"4.544705","geo_lng":"116.311798","state":"Sabah"},{"id":"P183","name":"Beluran","geo_lat":"5.716767","geo_lng":"117.437477","state":"Sabah"},{"id":"P184","name":"Libaran","geo_lat":"6.115193","geo_lng":"118.017143","state":"Sabah"},{"id":"P185","name":"Batu Sapi","geo_lat":"5.796667","geo_lng":"118.039719","state":"Sabah"},{"id":"P186","name":"Sandakan","geo_lat":"5.845610","geo_lng":"118.057053","state":"Sabah"},{"id":"P187","name":"Kinabatangan","geo_lat":"5.417274","geo_lng":"118.392944","state":"Sabah"},{"id":"P188","name":"Silam","geo_lat":"4.978303","geo_lng":"118.229599","state":"Sabah"},{"id":"P189","name":"Semporna","geo_lat":"4.436335","geo_lng":"118.531845","state":"Sabah"},{"id":"P190","name":"Tawau","geo_lat":"4.282457","geo_lng":"117.914787","state":"Sabah"},{"id":"P191","name":"Kalabakan","geo_lat":"4.411679","geo_lng":"117.492699","state":"Sabah"},{"id":"P192","name":"Mas Gading","geo_lat":"1.544282","geo_lng":"110.373520","state":"Sarawak"},{"id":"P193","name":"Santubong","geo_lat":"1.733333","geo_lng":"110.333336","state":"Sarawak"},{"id":"P194","name":"Petra Jaya","geo_lat":"1.596746","geo_lng":"110.333862","state":"Sarawak"},{"id":"P195","name":"Bandar Kuching","geo_lat":"1.537050","geo_lng":"110.367737","state":"Sarawak"},{"id":"P196","name":"Stampin","geo_lat":"1.517301","geo_lng":"110.348167","state":"Sarawak"},{"id":"P197","name":"Kota Samarahan","geo_lat":"1.461149","geo_lng":"110.431190","state":"Sarawak"},{"id":"P198","name":"Mambong","geo_lat":"1.983333","geo_lng":"112.183334","state":"Sarawak"},{"id":"P199","name":"Serian","geo_lat":"1.172728","geo_lng":"110.563881","state":"Sarawak"},{"id":"P200","name":"Batang Sadong","geo_lat":"1.159056","geo_lng":"110.571449","state":"Sarawak"},{"id":"P201","name":"Batang Lupar","geo_lat":"1.427918","geo_lng":"111.105652","state":"Sarawak"},{"id":"P202","name":"Sri Aman","geo_lat":"1.233580","geo_lng":"111.463745","state":"Sarawak"},{"id":"P203","name":"Lubok Antu","geo_lat":"1.217503","geo_lng":"111.976540","state":"Sarawak"},{"id":"P204","name":"Betong","geo_lat":"1.419595","geo_lng":"111.595940","state":"Sarawak"},{"id":"P205","name":"Saratok","geo_lat":"1.736200","geo_lng":"111.352837","state":"Sarawak"},{"id":"P206","name":"Tanjong Manis","geo_lat":"4.887871","geo_lng":"114.944000","state":"Sarawak"},{"id":"P207","name":"Igan","geo_lat":"2.823991","geo_lng":"111.710899","state":"Sarawak"},{"id":"P208","name":"Sarikei","geo_lat":"2.117813","geo_lng":"111.521210","state":"Sarawak"},{"id":"P209","name":"Julau","geo_lat":"1.782991","geo_lng":"111.969872","state":"Sarawak"},{"id":"P210","name":"Kanowit","geo_lat":"1.906414","geo_lng":"112.237076","state":"Sarawak"},{"id":"P211","name":"Lanang","geo_lat":"2.263694","geo_lng":"111.845398","state":"Sarawak"},{"id":"P212","name":"Sibu","geo_lat":"2.310033","geo_lng":"111.840042","state":"Sarawak"},{"id":"P213","name":"Mukah","geo_lat":"2.502668","geo_lng":"112.315666","state":"Sarawak"},{"id":"P214","name":"Selangau","geo_lat":"2.524563","geo_lng":"112.325584","state":"Sarawak"},{"id":"P215","name":"Kapit","geo_lat":"1.909782","geo_lng":"113.635597","state":"Sarawak"},{"id":"P216","name":"Hulu Rajang","geo_lat":"2.154008","geo_lng":"111.250000","state":"Sarawak"},{"id":"P217","name":"Bintulu","geo_lat":"3.190570","geo_lng":"113.090111","state":"Sarawak"},{"id":"P218","name":"Sibuti","geo_lat":"4.045211","geo_lng":"113.799896","state":"Sarawak"},{"id":"P219","name":"Miri","geo_lat":"4.333131","geo_lng":"113.994858","state":"Sarawak"},{"id":"P220","name":"Baram","geo_lat":"1.352571","geo_lng":"111.517593","state":"Sarawak"},{"id":"P221","name":"Limbang","geo_lat":"4.346647","geo_lng":"115.183624","state":"Sarawak"},{"id":"P222","name":"Lawas","geo_lat":"4.821140","geo_lng":"115.427399","state":"Sarawak"}]